id,name,city,province,lat,lng
BJ001,北京新发地,北京,北京,39.8234,116.3189
GZ001,广州江南,广州,广东,23.1707,113.2694
SH001,上海辉展,上海,上海,31.1884,121.4482
HN001,河南万邦,郑州,河南,34.7466,113.7746
SZ001,深圳海吉星,深圳,广东,22.6892,114.0493
CD001,成都濛阳,成都,四川,30.9927,104.0778
WH001,武汉光霞,武汉,湖北,30.5066,114.314
XA001,西安朱雀,西安,陕西,34.2321,108.9493
